{
  "stations": [
    {
      "id": 1,
      "name": "Indraprastha Gas Limited - Connaught Place",
      "latitude": 28.6318,
      "longitude": 77.2195,
      "address": "Connaught Place, New Delhi, Delhi 110001",
      "city": "Delhi",
      "state": "Delhi",
      "pincode": "110001",
      "phone": "+91-11-43189000",
      "operating_hours": "24x7",
      "number_of_pumps": 6,
      "avg_wait_time_minutes": 5,
      "current_price_per_kg": 75.61,
      "payment_methods": [
        "Cash",
        "Card",
        "UPI",
        "Wallet"
      ],
      "facilities": [
        "Restroom",
        "ATM",
        "Convenience Store",
        "Air Pump"
      ],
      "rating": 4.5,
      "total_reviews": 250,
      "last_updated": "2025-10-13T10:00:00Z"
    },
    {
      "id": 2,
      "name": "IGL - Rohini Sector 9",
      "latitude": 28.7041,
      "longitude": 77.1025,
      "address": "Sector 9, Rohini, Delhi 110085",
      "city": "Delhi",
      "state": "Delhi",
      "pincode": "110085",
      "phone": "+91-11-27856000",
      "operating_hours": "06:00-23:00",
      "number_of_pumps": 4,
      "avg_wait_time_minutes": 8,
      "current_price_per_kg": 75.61,
      "payment_methods": [
        "Cash",
        "Card",
        "UPI"
      ],
      "facilities": [
        "Restroom",
        "Air Pump"
      ],
      "rating": 4.2,
      "total_reviews": 180,
      "last_updated": "2025-10-13T09:30:00Z"
    },
    {
      "id": 3,
      "name": "IGL - Dwarka Sector 10",
      "latitude": 28.5918,
      "longitude": 77.0623,
      "address": "Sector 10, Dwarka, New Delhi 110075",
      "city": "Delhi",
      "state": "Delhi",
      "pincode": "110075",
      "phone": "+91-11-25084400",
      "operating_hours": "24x7",
      "number_of_pumps": 5,
      "avg_wait_time_minutes": 6,
      "current_price_per_kg": 75.61,
      "payment_methods": [
        "Cash",
        "Card",
        "UPI",
        "Wallet",
        "FastTag"
      ],
      "facilities": [
        "Restroom",
        "ATM",
        "Convenience Store",
        "Air Pump",
        "Cafe"
      ],
      "rating": 4.6,
      "total_reviews": 320,
      "last_updated": "2025-10-13T11:00:00Z"
    },
    {
      "id": 4,
      "name": "IGL - Mayur Vihar Phase 1",
      "latitude": 28.6087,
      "longitude": 77.2979,
      "address": "Mayur Vihar Phase 1, Delhi 110091",
      "city": "Delhi",
      "state": "Delhi",
      "pincode": "110091",
      "phone": "+91-11-22753000",
      "operating_hours": "24x7",
      "number_of_pumps": 4,
      "avg_wait_time_minutes": 7,
      "current_price_per_kg": 75.61,
      "payment_methods": [
        "Cash",
        "Card",
        "UPI"
      ],
      "facilities": [
        "Restroom",
        "Air Pump",
        "Water"
      ],
      "rating": 4.3,
      "total_reviews": 195,
      "last_updated": "2025-10-13T10:15:00Z"
    },
    {
      "id": 5,
      "name": "IGL - Punjabi Bagh",
      "latitude": 28.6692,
      "longitude": 77.1316,
      "address": "Punjabi Bagh, West Delhi 110026",
      "city": "Delhi",
      "state": "Delhi",
      "pincode": "110026",
      "phone": "+91-11-25229500",
      "operating_hours": "06:00-22:00",
      "number_of_pumps": 3,
      "avg_wait_time_minutes": 10,
      "current_price_per_kg": 75.61,
      "payment_methods": [
        "Cash",
        "Card"
      ],
      "facilities": [
        "Restroom",
        "Air Pump"
      ],
      "rating": 4.0,
      "total_reviews": 140,
      "last_updated": "2025-10-13T09:45:00Z"
    },
    {
      "id": 6,
      "name": "IGL - Lajpat Nagar",
      "latitude": 28.5677,
      "longitude": 77.2431,
      "address": "Lajpat Nagar, South Delhi 110024",
      "city": "Delhi",
      "state": "Delhi",
      "pincode": "110024",
      "phone": "+91-11-26838000",
      "operating_hours": "24x7",
      "number_of_pumps": 5,
      "avg_wait_time_minutes": 5,
      "current_price_per_kg": 75.61,
      "payment_methods": [
        "Cash",
        "Card",
        "UPI",
        "Wallet"
      ],
      "facilities": [
        "Restroom",
        "ATM",
        "Air Pump",
        "Convenience Store"
      ],
      "rating": 4.7,
      "total_reviews": 380,
      "last_updated": "2025-10-13T11:30:00Z"
    },
    {
      "id": 7,
      "name": "IGL - Vasant Kunj",
      "latitude": 28.5244,
      "longitude": 77.158,
      "address": "Vasant Kunj, South West Delhi 110070",
      "city": "Delhi",
      "state": "Delhi",
      "pincode": "110070",
      "phone": "+91-11-26892000",
      "operating_hours": "24x7",
      "number_of_pumps": 6,
      "avg_wait_time_minutes": 4,
      "current_price_per_kg": 75.61,
      "payment_methods": [
        "Cash",
        "Card",
        "UPI",
        "Wallet",
        "FastTag"
      ],
      "facilities": [
        "Restroom",
        "ATM",
        "Air Pump",
        "Convenience Store",
        "Cafe",
        "EV Charging"
      ],
      "rating": 4.8,
      "total_reviews": 450,
      "last_updated": "2025-10-13T12:00:00Z"
    },
    {
      "id": 8,
      "name": "Mahanagar Gas Limited - Andheri",
      "latitude": 19.1136,
      "longitude": 72.8697,
      "address": "Andheri West, Mumbai, Maharashtra 400053",
      "city": "Mumbai",
      "state": "Maharashtra",
      "pincode": "400053",
      "phone": "+91-22-39270000",
      "operating_hours": "24x7",
      "number_of_pumps": 8,
      "avg_wait_time_minutes": 6,
      "current_price_per_kg": 78.5,
      "payment_methods": [
        "Cash",
        "Card",
        "UPI",
        "Wallet"
      ],
      "facilities": [
        "Restroom",
        "ATM",
        "Convenience Store",
        "Air Pump",
        "Cafe"
      ],
      "rating": 4.6,
      "total_reviews": 520,
      "last_updated": "2025-10-13T10:30:00Z"
    },
    {
      "id": 9,
      "name": "MGL - Borivali East",
      "latitude": 19.2304,
      "longitude": 72.8585,
      "address": "Borivali East, Mumbai, Maharashtra 400066",
      "city": "Mumbai",
      "state": "Maharashtra",
      "pincode": "400066",
      "phone": "+91-22-39270100",
      "operating_hours": "06:00-23:00",
      "number_of_pumps": 5,
      "avg_wait_time_minutes": 7,
      "current_price_per_kg": 78.5,
      "payment_methods": [
        "Cash",
        "Card",
        "UPI"
      ],
      "facilities": [
        "Restroom",
        "Air Pump",
        "Water"
      ],
      "rating": 4.4,
      "total_reviews": 280,
      "last_updated": "2025-10-13T09:00:00Z"
    },
    {
      "id": 10,
      "name": "MGL - Thane West",
      "latitude": 19.2183,
      "longitude": 72.9781,
      "address": "Thane West, Thane, Maharashtra 400601",
      "city": "Thane",
      "state": "Maharashtra",
      "pincode": "400601",
      "phone": "+91-22-39270200",
      "operating_hours": "24x7",
      "number_of_pumps": 6,
      "avg_wait_time_minutes": 5,
      "current_price_per_kg": 78.5,
      "payment_methods": [
        "Cash",
        "Card",
        "UPI",
        "Wallet"
      ],
      "facilities": [
        "Restroom",
        "ATM",
        "Air Pump",
        "Convenience Store"
      ],
      "rating": 4.5,
      "total_reviews": 340,
      "last_updated": "2025-10-13T10:45:00Z"
    },
    {
      "id": 11,
      "name": "Maharashtra Natural Gas - Pune Aundh",
      "latitude": 18.5577,
      "longitude": 73.8068,
      "address": "Aundh, Pune, Maharashtra 411007",
      "city": "Pune",
      "state": "Maharashtra",
      "pincode": "411007",
      "phone": "+91-20-66813000",
      "operating_hours": "24x7",
      "number_of_pumps": 5,
      "avg_wait_time_minutes": 6,
      "current_price_per_kg": 77.8,
      "payment_methods": [
        "Cash",
        "Card",
        "UPI",
        "Wallet"
      ],
      "facilities": [
        "Restroom",
        "ATM",
        "Air Pump",
        "Convenience Store"
      ],
      "rating": 4.6,
      "total_reviews": 290,
      "last_updated": "2025-10-13T11:15:00Z"
    },
    {
      "id": 12,
      "name": "MNG - Kothrud Pune",
      "latitude": 18.5074,
      "longitude": 73.8077,
      "address": "Kothrud, Pune, Maharashtra 411038",
      "city": "Pune",
      "state": "Maharashtra",
      "pincode": "411038",
      "phone": "+91-20-66813100",
      "operating_hours": "06:00-22:00",
      "number_of_pumps": 4,
      "avg_wait_time_minutes": 8,
      "current_price_per_kg": 77.8,
      "payment_methods": [
        "Cash",
        "Card",
        "UPI"
      ],
      "facilities": [
        "Restroom",
        "Air Pump"
      ],
      "rating": 4.3,
      "total_reviews": 185,
      "last_updated": "2025-10-13T09:30:00Z"
    },
    {
      "id": 13,
      "name": "Gujarat Gas - Satellite Ahmedabad",
      "latitude": 23.0311,
      "longitude": 72.5053,
      "address": "Satellite, Ahmedabad, Gujarat 380015",
      "city": "Ahmedabad",
      "state": "Gujarat",
      "pincode": "380015",
      "phone": "+91-79-26406000",
      "operating_hours": "24x7",
      "number_of_pumps": 7,
      "avg_wait_time_minutes": 5,
      "current_price_per_kg": 74.5,
      "payment_methods": [
        "Cash",
        "Card",
        "UPI",
        "Wallet",
        "FastTag"
      ],
      "facilities": [
        "Restroom",
        "ATM",
        "Air Pump",
        "Convenience Store",
        "Cafe"
      ],
      "rating": 4.7,
      "total_reviews": 420,
      "last_updated": "2025-10-13T12:00:00Z"
    },
    {
      "id": 14,
      "name": "Gujarat Gas - Vastrapur",
      "latitude": 23.037,
      "longitude": 72.5245,
      "address": "Vastrapur, Ahmedabad, Gujarat 380015",
      "city": "Ahmedabad",
      "state": "Gujarat",
      "pincode": "380015",
      "phone": "+91-79-26406100",
      "operating_hours": "06:00-23:00",
      "number_of_pumps": 5,
      "avg_wait_time_minutes": 6,
      "current_price_per_kg": 74.5,
      "payment_methods": [
        "Cash",
        "Card",
        "UPI"
      ],
      "facilities": [
        "Restroom",
        "Air Pump",
        "Water"
      ],
      "rating": 4.4,
      "total_reviews": 265,
      "last_updated": "2025-10-13T10:00:00Z"
    },
    {
      "id": 15,
      "name": "Adani Gas - Bengaluru Koramangala",
      "latitude": 12.9352,
      "longitude": 77.6245,
      "address": "Koramangala, Bengaluru, Karnataka 560095",
      "city": "Bengaluru",
      "state": "Karnataka",
      "pincode": "560095",
      "phone": "+91-80-67676000",
      "operating_hours": "24x7",
      "number_of_pumps": 6,
      "avg_wait_time_minutes": 7,
      "current_price_per_kg": 79.2,
      "payment_methods": [
        "Cash",
        "Card",
        "UPI",
        "Wallet"
      ],
      "facilities": [
        "Restroom",
        "ATM",
        "Air Pump",
        "Convenience Store",
        "EV Charging"
      ],
      "rating": 4.5,
      "total_reviews": 310,
      "last_updated": "2025-10-13T11:00:00Z"
    },
    {
      "id": 16,
      "name": "Adani Gas - Whitefield",
      "latitude": 12.9698,
      "longitude": 77.7499,
      "address": "Whitefield, Bengaluru, Karnataka 560066",
      "city": "Bengaluru",
      "state": "Karnataka",
      "pincode": "560066",
      "phone": "+91-80-67676100",
      "operating_hours": "06:00-22:00",
      "number_of_pumps": 4,
      "avg_wait_time_minutes": 9,
      "current_price_per_kg": 79.2,
      "payment_methods": [
        "Cash",
        "Card",
        "UPI"
      ],
      "facilities": [
        "Restroom",
        "Air Pump"
      ],
      "rating": 4.2,
      "total_reviews": 175,
      "last_updated": "2025-10-13T09:15:00Z"
    },
    {
      "id": 17,
      "name": "Adani Gas - Hyderabad Gachibowli",
      "latitude": 17.4401,
      "longitude": 78.3489,
      "address": "Gachibowli, Hyderabad, Telangana 500032",
      "city": "Hyderabad",
      "state": "Telangana",
      "pincode": "500032",
      "phone": "+91-40-67676000",
      "operating_hours": "24x7",
      "number_of_pumps": 5,
      "avg_wait_time_minutes": 6,
      "current_price_per_kg": 76.9,
      "payment_methods": [
        "Cash",
        "Card",
        "UPI",
        "Wallet"
      ],
      "facilities": [
        "Restroom",
        "ATM",
        "Air Pump",
        "Convenience Store"
      ],
      "rating": 4.6,
      "total_reviews": 285,
      "last_updated": "2025-10-13T10:30:00Z"
    },
    {
      "id": 18,
      "name": "Adani Gas - Hitech City",
      "latitude": 17.4485,
      "longitude": 78.3908,
      "address": "Hitech City, Hyderabad, Telangana 500081",
      "city": "Hyderabad",
      "state": "Telangana",
      "pincode": "500081",
      "phone": "+91-40-67676100",
      "operating_hours": "06:00-23:00",
      "number_of_pumps": 4,
      "avg_wait_time_minutes": 8,
      "current_price_per_kg": 76.9,
      "payment_methods": [
        "Cash",
        "Card",
        "UPI"
      ],
      "facilities": [
        "Restroom",
        "Air Pump"
      ],
      "rating": 4.3,
      "total_reviews": 210,
      "last_updated": "2025-10-13T09:45:00Z"
    },
    {
      "id": 19,
      "name": "IGL - Gomti Nagar Lucknow",
      "latitude": 26.8559,
      "longitude": 80.9741,
      "address": "Gomti Nagar, Lucknow, Uttar Pradesh 226010",
      "city": "Lucknow",
      "state": "Uttar Pradesh",
      "pincode": "226010",
      "phone": "+91-522-4089000",
      "operating_hours": "24x7",
      "number_of_pumps": 5,
      "avg_wait_time_minutes": 7,
      "current_price_per_kg": 76.2,
      "payment_methods": [
        "Cash",
        "Card",
        "UPI",
        "Wallet"
      ],
      "facilities": [
        "Restroom",
        "ATM",
        "Air Pump",
        "Convenience Store"
      ],
      "rating": 4.4,
      "total_reviews": 240,
      "last_updated": "2025-10-13T10:15:00Z"
    },
    {
      "id": 20,
      "name": "Green Gas - Kanpur Kalyanpur",
      "latitude": 26.5123,
      "longitude": 80.2329,
      "address": "Kalyanpur, Kanpur, Uttar Pradesh 208017",
      "city": "Kanpur",
      "state": "Uttar Pradesh",
      "pincode": "208017",
      "phone": "+91-512-2771000",
      "operating_hours": "06:00-22:00",
      "number_of_pumps": 4,
      "avg_wait_time_minutes": 9,
      "current_price_per_kg": 75.8,
      "payment_methods": [
        "Cash",
        "Card",
        "UPI"
      ],
      "facilities": [
        "Restroom",
        "Air Pump"
      ],
      "rating": 4.1,
      "total_reviews": 165,
      "last_updated": "2025-10-13T09:00:00Z"
    }
  ],
  "cars": [
    {
      "make": "Maruti Suzuki",
      "model": "Alto",
      "year": 2024,
      "fuel_types": [
        "CNG",
        "Petrol"
      ],
      "cng_efficiency": 31.59,
      "petrol_efficiency": 22.05,
      "price": 350000,
      "insurance_annual": 12000,
      "maintenance_annual_cng": 8000,
      "maintenance_annual_petrol": 10000,
      "depreciation_rate": 0.15,
      "co2_per_km_petrol": 0.12,
      "co2_per_km_cng": 0.08,
      "category": "Hatchback"
    },
    {
      "make": "Maruti Suzuki",
      "model": "WagonR",
      "year": 2024,
      "fuel_types": [
        "CNG",
        "Petrol"
      ],
      "cng_efficiency": 34.05,
      "petrol_efficiency": 23.56,
      "price": 550000,
      "insurance_annual": 15000,
      "maintenance_annual_cng": 9000,
      "maintenance_annual_petrol": 11000,
      "depreciation_rate": 0.14,
      "co2_per_km_petrol": 0.115,
      "co2_per_km_cng": 0.075,
      "category": "Hatchback"
    },
    {
      "make": "Maruti Suzuki",
      "model": "Swift",
      "year": 2024,
      "fuel_types": [
        "CNG",
        "Petrol"
      ],
      "cng_efficiency": 30.9,
      "petrol_efficiency": 23.2,
      "price": 750000,
      "insurance_annual": 18000,
      "maintenance_annual_cng": 10000,
      "maintenance_annual_petrol": 12000,
      "depreciation_rate": 0.13,
      "co2_per_km_petrol": 0.118,
      "co2_per_km_cng": 0.078,
      "category": "Hatchback"
    },
    {
      "make": "Maruti Suzuki",
      "model": "Dzire",
      "year": 2024,
      "fuel_types": [
        "CNG",
        "Petrol"
      ],
      "cng_efficiency": 31.12,
      "petrol_efficiency": 24.12,
      "price": 850000,
      "insurance_annual": 20000,
      "maintenance_annual_cng": 11000,
      "maintenance_annual_petrol": 13000,
      "depreciation_rate": 0.12,
      "co2_per_km_petrol": 0.113,
      "co2_per_km_cng": 0.073,
      "category": "Sedan"
    },
    {
      "make": "Maruti Suzuki",
      "model": "Ertiga",
      "year": 2024,
      "fuel_types": [
        "CNG",
        "Petrol"
      ],
      "cng_efficiency": 26.08,
      "petrol_efficiency": 19.01,
      "price": 1100000,
      "insurance_annual": 25000,
      "maintenance_annual_cng": 13000,
      "maintenance_annual_petrol": 15000,
      "depreciation_rate": 0.13,
      "co2_per_km_petrol": 0.135,
      "co2_per_km_cng": 0.09,
      "category": "MUV"
    },
    {
      "make": "Hyundai",
      "model": "Grand i10 Nios",
      "year": 2024,
      "fuel_types": [
        "CNG",
        "Petrol"
      ],
      "cng_efficiency": 29.38,
      "petrol_efficiency": 20.7,
      "price": 650000,
      "insurance_annual": 17000,
      "maintenance_annual_cng": 10000,
      "maintenance_annual_petrol": 12000,
      "depreciation_rate": 0.14,
      "co2_per_km_petrol": 0.125,
      "co2_per_km_cng": 0.082,
      "category": "Hatchback"
    },
    {
      "make": "Hyundai",
      "model": "Aura",
      "year": 2024,
      "fuel_types": [
        "CNG",
        "Petrol"
      ],
      "cng_efficiency": 28.4,
      "petrol_efficiency": 20.5,
      "price": 750000,
      "insurance_annual": 19000,
      "maintenance_annual_cng": 11000,
      "maintenance_annual_petrol": 13000,
      "depreciation_rate": 0.13,
      "co2_per_km_petrol": 0.126,
      "co2_per_km_cng": 0.083,
      "category": "Sedan"
    },
    {
      "make": "Hyundai",
      "model": "Exter",
      "year": 2024,
      "fuel_types": [
        "CNG",
        "Petrol"
      ],
      "cng_efficiency": 27.1,
      "petrol_efficiency": 19.2,
      "price": 750000,
      "insurance_annual": 19000,
      "maintenance_annual_cng": 11000,
      "maintenance_annual_petrol": 13000,
      "depreciation_rate": 0.14,
      "co2_per_km_petrol": 0.134,
      "co2_per_km_cng": 0.088,
      "category": "SUV"
    },
    {
      "make": "Tata",
      "model": "Tiago",
      "year": 2024,
      "fuel_types": [
        "CNG",
        "Petrol"
      ],
      "cng_efficiency": 28.06,
      "petrol_efficiency": 19.0,
      "price": 600000,
      "insurance_annual": 16000,
      "maintenance_annual_cng": 9500,
      "maintenance_annual_petrol": 11500,
      "depreciation_rate": 0.15,
      "co2_per_km_petrol": 0.136,
      "co2_per_km_cng": 0.089,
      "category": "Hatchback"
    },
    {
      "make": "Tata",
      "model": "Tigor",
      "year": 2024,
      "fuel_types": [
        "CNG",
        "Petrol"
      ],
      "cng_efficiency": 26.49,
      "petrol_efficiency": 19.5,
      "price": 700000,
      "insurance_annual": 18000,
      "maintenance_annual_cng": 10500,
      "maintenance_annual_petrol": 12500,
      "depreciation_rate": 0.14,
      "co2_per_km_petrol": 0.132,
      "co2_per_km_cng": 0.087,
      "category": "Sedan"
    },
    {
      "make": "Tata",
      "model": "Altroz",
      "year": 2024,
      "fuel_types": [
        "CNG",
        "Petrol"
      ],
      "cng_efficiency": 26.2,
      "petrol_efficiency": 18.6,
      "price": 850000,
      "insurance_annual": 20000,
      "maintenance_annual_cng": 11500,
      "maintenance_annual_petrol": 13500,
      "depreciation_rate": 0.13,
      "co2_per_km_petrol": 0.138,
      "co2_per_km_cng": 0.091,
      "category": "Hatchback"
    },
    {
      "make": "Honda",
      "model": "Amaze",
      "year": 2024,
      "fuel_types": [
        "Petrol"
      ],
      "cng_efficiency": 0,
      "petrol_efficiency": 18.3,
      "price": 800000,
      "insurance_annual": 19000,
      "maintenance_annual_cng": 0,
      "maintenance_annual_petrol": 13000,
      "depreciation_rate": 0.12,
      "co2_per_km_petrol": 0.141,
      "co2_per_km_cng": 0,
      "category": "Sedan"
    },
    {
      "make": "Honda",
      "model": "City",
      "year": 2024,
      "fuel_types": [
        "Petrol"
      ],
      "cng_efficiency": 0,
      "petrol_efficiency": 17.8,
      "price": 1250000,
      "insurance_annual": 28000,
      "maintenance_annual_cng": 0,
      "maintenance_annual_petrol": 16000,
      "depreciation_rate": 0.11,
      "co2_per_km_petrol": 0.145,
      "co2_per_km_cng": 0,
      "category": "Sedan"
    },
    {
      "make": "Volkswagen",
      "model": "Polo",
      "year": 2024,
      "fuel_types": [
        "Petrol"
      ],
      "cng_efficiency": 0,
      "petrol_efficiency": 17.24,
      "price": 900000,
      "insurance_annual": 22000,
      "maintenance_annual_cng": 0,
      "maintenance_annual_petrol": 15000,
      "depreciation_rate": 0.13,
      "co2_per_km_petrol": 0.149,
      "co2_per_km_cng": 0,
      "category": "Hatchback"
    },
    {
      "make": "Volkswagen",
      "model": "Virtus",
      "year": 2024,
      "fuel_types": [
        "Petrol"
      ],
      "cng_efficiency": 0,
      "petrol_efficiency": 17.91,
      "price": 1200000,
      "insurance_annual": 27000,
      "maintenance_annual_cng": 0,
      "maintenance_annual_petrol": 16000,
      "depreciation_rate": 0.12,
      "co2_per_km_petrol": 0.144,
      "co2_per_km_cng": 0,
      "category": "Sedan"
    },
    {
      "make": "Mahindra",
      "model": "Bolero",
      "year": 2024,
      "fuel_types": [
        "Diesel"
      ],
      "cng_efficiency": 0,
      "petrol_efficiency": 0,
      "diesel_efficiency": 16.7,
      "price": 1050000,
      "insurance_annual": 24000,
      "maintenance_annual_diesel": 18000,
      "depreciation_rate": 0.14,
      "co2_per_km_diesel": 0.169,
      "category": "SUV"
    },
    {
      "make": "Mahindra",
      "model": "Scorpio",
      "year": 2024,
      "fuel_types": [
        "Diesel"
      ],
      "cng_efficiency": 0,
      "petrol_efficiency": 0,
      "diesel_efficiency": 15.3,
      "price": 1350000,
      "insurance_annual": 30000,
      "maintenance_annual_diesel": 20000,
      "depreciation_rate": 0.13,
      "co2_per_km_diesel": 0.184,
      "category": "SUV"
    },
    {
      "make": "Mahindra",
      "model": "XUV700",
      "year": 2024,
      "fuel_types": [
        "Diesel"
      ],
      "cng_efficiency": 0,
      "petrol_efficiency": 0,
      "diesel_efficiency": 16.9,
      "price": 1850000,
      "insurance_annual": 38000,
      "maintenance_annual_diesel": 22000,
      "depreciation_rate": 0.12,
      "co2_per_km_diesel": 0.167,
      "category": "SUV"
    }
  ],
  "routes": []
}